{
  "assignments": [
    {
      "task_id": 217762,
      "logistic_code": "1643",
      "cleanerId": 132,
      "assignment_type": "early_out",
      "sequence": 1,
      "address": "Viale Majno 23",
      "lat": 45.47048,
      "lng": 9.2052883,
      "premium": true,
      "cleaning_time": 180,
      "start_time": "10:00",
      "end_time": "13:00",
      "travel_time": 0,
      "followup": false
    },
    {
      "task_id": 217903,
      "logistic_code": "1622",
      "cleanerId": 24,
      "assignment_type": "early_out",
      "sequence": 1,
      "address": "Viale Certosa 61",
      "lat": 45.491214,
      "lng": 9.1485422,
      "premium": false,
      "cleaning_time": 90,
      "start_time": "10:00",
      "end_time": "11:30",
      "travel_time": 0,
      "followup": false
    },
    {
      "task_id": 217728,
      "logistic_code": "1622",
      "cleanerId": 24,
      "assignment_type": "early_out",
      "sequence": 2,
      "address": "Viale Certosa 61",
      "lat": 45.491214,
      "lng": 9.1485422,
      "premium": false,
      "cleaning_time": 90,
      "start_time": "11:33",
      "end_time": "13:03",
      "travel_time": 3,
      "followup": true
    },
    {
      "task_id": 217764,
      "logistic_code": "980",
      "cleanerId": 596,
      "assignment_type": "early_out",
      "sequence": 1,
      "address": "LARGO CORSIA DEI SERVI 11",
      "lat": 45.4650722,
      "lng": 9.196025,
      "premium": true,
      "cleaning_time": 120,
      "start_time": "10:00",
      "end_time": "12:00",
      "travel_time": 0,
      "followup": false
    },
    {
      "task_id": 217763,
      "logistic_code": "1640",
      "cleanerId": 404,
      "assignment_type": "early_out",
      "sequence": 1,
      "address": "VIA EUGENIO MONTALE 12",
      "lat": 45.488914,
      "lng": 9.1167004,
      "premium": false,
      "cleaning_time": 150,
      "start_time": "10:00",
      "end_time": "12:30",
      "travel_time": 0,
      "followup": false
    },
    {
      "task_id": 217766,
      "logistic_code": "1647",
      "cleanerId": 445,
      "assignment_type": "early_out",
      "sequence": 1,
      "address": "Viale Piave 35",
      "lat": 45.472932,
      "lng": 9.2062841,
      "premium": true,
      "cleaning_time": 180,
      "start_time": "10:00",
      "end_time": "13:00",
      "travel_time": 0,
      "followup": false
    },
    {
      "task_id": 217767,
      "logistic_code": "1648",
      "cleanerId": 937,
      "assignment_type": "early_out",
      "sequence": 1,
      "address": "via Isabella d'Aragona 2",
      "lat": 45.451552,
      "lng": 9.1901083,
      "premium": false,
      "cleaning_time": 60,
      "start_time": "10:00",
      "end_time": "11:00",
      "travel_time": 0,
      "followup": false
    },
    {
      "task_id": 217768,
      "logistic_code": "609",
      "cleanerId": 1045,
      "assignment_type": "early_out",
      "sequence": 1,
      "address": "VIALE STELVIO 53",
      "lat": 45.494052,
      "lng": 9.186503,
      "premium": false,
      "cleaning_time": 60,
      "start_time": "10:00",
      "end_time": "11:00",
      "travel_time": 0,
      "followup": false
    },
    {
      "task_id": 217769,
      "logistic_code": "1009",
      "cleanerId": 495,
      "assignment_type": "early_out",
      "sequence": 1,
      "address": "Via Fabio Filzi, 45",
      "lat": 45.48811,
      "lng": 9.20332,
      "premium": false,
      "cleaning_time": 60,
      "start_time": "10:00",
      "end_time": "11:00",
      "travel_time": 0,
      "followup": false
    },
    {
      "task_id": 217771,
      "logistic_code": "490",
      "cleanerId": 771,
      "assignment_type": "early_out",
      "sequence": 1,
      "address": "VIA DELLA COMMENDA, 28",
      "lat": 45.4551641,
      "lng": 9.1994733,
      "premium": false,
      "cleaning_time": 60,
      "start_time": "10:00",
      "end_time": "11:00",
      "travel_time": 0,
      "followup": false
    },
    {
      "task_id": 217788,
      "logistic_code": "1627",
      "cleanerId": 1054,
      "assignment_type": "early_out",
      "sequence": 1,
      "address": "via Nino Oxilia 24",
      "lat": 45.491965,
      "lng": 9.2137771,
      "premium": false,
      "cleaning_time": 60,
      "start_time": "10:00",
      "end_time": "11:00",
      "travel_time": 0,
      "followup": false
    },
    {
      "task_id": 217776,
      "logistic_code": "1382",
      "cleanerId": 1054,
      "assignment_type": "early_out",
      "sequence": 2,
      "address": "VIA PONTE SEVESO 40",
      "lat": 45.4901211,
      "lng": 9.2057682,
      "premium": false,
      "cleaning_time": 90,
      "start_time": "11:14",
      "end_time": "12:44",
      "travel_time": 14,
      "followup": true
    },
    {
      "task_id": 217778,
      "logistic_code": "1401",
      "cleanerId": 249,
      "assignment_type": "early_out",
      "sequence": 1,
      "address": "VIALE ZARA, 118",
      "lat": 45.4987885,
      "lng": 9.1968263,
      "premium": false,
      "cleaning_time": 60,
      "start_time": "10:00",
      "end_time": "11:00",
      "travel_time": 0,
      "followup": false
    },
    {
      "task_id": 217782,
      "logistic_code": "494",
      "cleanerId": 785,
      "assignment_type": "early_out",
      "sequence": 1,
      "address": "P.ZZA S. MARCO, 1",
      "lat": 45.4730972,
      "lng": 9.1883431,
      "premium": false,
      "cleaning_time": 60,
      "start_time": "10:00",
      "end_time": "11:00",
      "travel_time": 0,
      "followup": false
    },
    {
      "task_id": 217783,
      "logistic_code": "1381",
      "cleanerId": 1031,
      "assignment_type": "early_out",
      "sequence": 1,
      "address": "VIA PONTE SEVESO 40",
      "lat": 45.4901211,
      "lng": 9.2057682,
      "premium": false,
      "cleaning_time": 90,
      "start_time": "10:00",
      "end_time": "11:30",
      "travel_time": 0,
      "followup": false
    },
    {
      "task_id": 217785,
      "logistic_code": "839",
      "cleanerId": 1055,
      "assignment_type": "early_out",
      "sequence": 1,
      "address": "Via dei Biancospini 13",
      "lat": 45.4494831,
      "lng": 9.1400384,
      "premium": false,
      "cleaning_time": 60,
      "start_time": "10:00",
      "end_time": "11:00",
      "travel_time": 0,
      "followup": false
    },
    {
      "task_id": 217904,
      "logistic_code": "618",
      "cleanerId": 722,
      "assignment_type": "early_out",
      "sequence": 1,
      "address": "VIA VOGHERA, 4",
      "lat": 45.454632,
      "lng": 9.168536,
      "premium": false,
      "cleaning_time": 30,
      "start_time": "10:00",
      "end_time": "10:30",
      "travel_time": 0,
      "followup": false
    },
    {
      "task_id": 217787,
      "logistic_code": "1135",
      "cleanerId": 722,
      "assignment_type": "early_out",
      "sequence": 2,
      "address": "VIA CORSICO,  5",
      "lat": 45.4517049,
      "lng": 9.1727477,
      "premium": false,
      "cleaning_time": 60,
      "start_time": "10:43",
      "end_time": "11:43",
      "travel_time": 13,
      "followup": true
    },
    {
      "task_id": 217926,
      "logistic_code": "1600",
      "cleanerId": 132,
      "assignment_type": "high_priority",
      "sequence": 2,
      "address": "VIA VIVAIO, 15",
      "lat": 45.46967,
      "lng": 9.2034764,
      "premium": true,
      "cleaning_time": 120,
      "start_time": "13:06",
      "end_time": "15:06",
      "travel_time": 6,
      "followup": true
    },
    {
      "task_id": 217791,
      "logistic_code": "1032",
      "cleanerId": 132,
      "assignment_type": "high_priority",
      "sequence": 3,
      "address": "VIA PIETRO MASCAGNI, 2",
      "lat": 45.4662468,
      "lng": 9.2045849,
      "premium": false,
      "cleaning_time": 60,
      "start_time": "11:00",
      "end_time": "12:00",
      "travel_time": 9,
      "followup": true
    },
    {
      "task_id": 217922,
      "logistic_code": "109",
      "cleanerId": 596,
      "assignment_type": "high_priority",
      "sequence": 2,
      "address": "VIALE MONTENERO 59",
      "lat": 45.45962,
      "lng": 9.2067142,
      "premium": true,
      "cleaning_time": 150,
      "start_time": "12:18",
      "end_time": "14:48",
      "travel_time": 18,
      "followup": true
    },
    {
      "task_id": 217919,
      "logistic_code": "1028",
      "cleanerId": 445,
      "assignment_type": "high_priority",
      "sequence": 2,
      "address": "Corso di Porta Nuova 36",
      "lat": 45.4773296,
      "lng": 9.1923369,
      "premium": true,
      "cleaning_time": 150,
      "start_time": "13:20",
      "end_time": "15:50",
      "travel_time": 20,
      "followup": true
    },
    {
      "task_id": 217770,
      "logistic_code": "1552",
      "cleanerId": 937,
      "assignment_type": "high_priority",
      "sequence": 2,
      "address": "VIA CASCINA BELCASULE, 4",
      "lat": 45.4328209,
      "lng": 9.1973986,
      "premium": false,
      "cleaning_time": 60,
      "start_time": "11:24",
      "end_time": "12:24",
      "travel_time": 25,
      "followup": true
    },
    {
      "task_id": 217792,
      "logistic_code": "751",
      "cleanerId": 1045,
      "assignment_type": "high_priority",
      "sequence": 2,
      "address": "Via L. Cagnola, 12",
      "lat": 45.4776,
      "lng": 9.17287,
      "premium": false,
      "cleaning_time": 60,
      "start_time": "11:00",
      "end_time": "12:00",
      "travel_time": 25,
      "followup": true
    },
    {
      "task_id": 216080,
      "logistic_code": "1210",
      "cleanerId": 495,
      "assignment_type": "high_priority",
      "sequence": 2,
      "address": "VIA TONALE 16",
      "lat": 45.4890205,
      "lng": 9.2028612,
      "premium": false,
      "cleaning_time": 90,
      "start_time": "11:00",
      "end_time": "12:30",
      "travel_time": 5,
      "followup": true
    },
    {
      "task_id": 217921,
      "logistic_code": "1353",
      "cleanerId": 771,
      "assignment_type": "high_priority",
      "sequence": 2,
      "address": "Via Crivelli, 15/1",
      "lat": 45.4534737,
      "lng": 9.1937547,
      "premium": false,
      "cleaning_time": 120,
      "start_time": "11:11",
      "end_time": "13:11",
      "travel_time": 12,
      "followup": true
    },
    {
      "task_id": 217889,
      "logistic_code": "1545",
      "cleanerId": 1054,
      "assignment_type": "high_priority",
      "sequence": 3,
      "address": "VIA NICOLA PICCINNI, 5",
      "lat": 45.4829445,
      "lng": 9.2151596,
      "premium": false,
      "cleaning_time": 60,
      "start_time": "11:00",
      "end_time": "12:00",
      "travel_time": 19,
      "followup": true
    },
    {
      "task_id": 217917,
      "logistic_code": "754",
      "cleanerId": 1054,
      "assignment_type": "high_priority",
      "sequence": 4,
      "address": "VIA STRADIVARI, 4",
      "lat": 45.4842098,
      "lng": 9.2155099,
      "premium": false,
      "cleaning_time": 120,
      "start_time": "12:05",
      "end_time": "14:05",
      "travel_time": 6,
      "followup": true
    },
    {
      "task_id": 217781,
      "logistic_code": "1602",
      "cleanerId": 785,
      "assignment_type": "high_priority",
      "sequence": 2,
      "address": "VIA BRERA 17",
      "lat": 45.47152,
      "lng": 9.186657,
      "premium": true,
      "cleaning_time": 180,
      "start_time": "11:07",
      "end_time": "14:07",
      "travel_time": 7,
      "followup": true
    },
    {
      "task_id": 217923,
      "logistic_code": "1393",
      "cleanerId": 785,
      "assignment_type": "high_priority",
      "sequence": 3,
      "address": "Via San Carpoforo, 7",
      "lat": 45.4715316,
      "lng": 9.184796,
      "premium": true,
      "cleaning_time": 120,
      "start_time": "14:12",
      "end_time": "16:12",
      "travel_time": 6,
      "followup": true
    },
    {
      "task_id": 217794,
      "logistic_code": "1372",
      "cleanerId": 785,
      "assignment_type": "high_priority",
      "sequence": 4,
      "address": "CORSO GARIBALDI, 55",
      "lat": 45.4743685,
      "lng": 9.1833014,
      "premium": false,
      "cleaning_time": 60,
      "start_time": "11:00",
      "end_time": "12:00",
      "travel_time": 8,
      "followup": true
    },
    {
      "task_id": 202566,
      "logistic_code": "1198",
      "cleanerId": 1055,
      "assignment_type": "high_priority",
      "sequence": 2,
      "address": "Via Bergognone 31",
      "lat": 45.453707852983,
      "lng": 9.1641459982137,
      "premium": false,
      "cleaning_time": 180,
      "start_time": "11:00",
      "end_time": "14:00",
      "travel_time": 24,
      "followup": true
    },
    {
      "task_id": 217916,
      "logistic_code": "738",
      "cleanerId": 722,
      "assignment_type": "high_priority",
      "sequence": 3,
      "address": "Via Gian Giacomo Mora 12",
      "lat": 45.4591723,
      "lng": 9.1803896,
      "premium": true,
      "cleaning_time": 120,
      "start_time": "12:01",
      "end_time": "14:01",
      "travel_time": 18,
      "followup": true
    },
    {
      "task_id": 217259,
      "logistic_code": "1530",
      "cleanerId": 722,
      "assignment_type": "high_priority",
      "sequence": 4,
      "address": "via Lanzone 39",
      "lat": 45.461049,
      "lng": 9.175446,
      "premium": true,
      "cleaning_time": 60,
      "start_time": "11:15",
      "end_time": "12:15",
      "travel_time": 11,
      "followup": true
    }
  ],
  "current_date": "2025-10-24"
}