{
  "assignments": [
    {
      "task_id": 217740,
      "logistic_code": "266",
      "cleanerId": 24,
      "assignment_type": "low_priority",
      "sequence": 2,
      "address": "VIA SAVONA 108",
      "lat": 45.4498138,
      "lng": 9.1499811,
      "premium": false,
      "cleaning_time": 90,
      "start_time": "11:51",
      "end_time": "13:21",
      "travel_time": 21,
      "followup": true
    },
    {
      "task_id": 218049,
      "logistic_code": "229",
      "cleanerId": 596,
      "assignment_type": "low_priority",
      "sequence": 3,
      "address": "Viale Bligny 19",
      "lat": 45.4510472,
      "lng": 9.1910628,
      "premium": false,
      "cleaning_time": 150,
      "start_time": "15:18",
      "end_time": "17:48",
      "travel_time": 26,
      "followup": true
    },
    {
      "task_id": 218024,
      "logistic_code": "635",
      "cleanerId": 445,
      "assignment_type": "low_priority",
      "sequence": 4,
      "address": "PIAZZALE BIANCAMANO, 2",
      "lat": 45.4778532,
      "lng": 9.1815222,
      "premium": false,
      "cleaning_time": 150,
      "start_time": "16:18",
      "end_time": "18:48",
      "travel_time": 23,
      "followup": true
    },
    {
      "task_id": 217875,
      "logistic_code": "1551",
      "cleanerId": 495,
      "assignment_type": "low_priority",
      "sequence": 3,
      "address": "VIA ADAMELLO, 8",
      "lat": 45.4428459,
      "lng": 9.2030197,
      "premium": false,
      "cleaning_time": 90,
      "start_time": "14:07",
      "end_time": "15:37",
      "travel_time": 16,
      "followup": true
    },
    {
      "task_id": 217936,
      "logistic_code": "1535",
      "cleanerId": 495,
      "assignment_type": "low_priority",
      "sequence": 4,
      "address": "Via Gallura 9",
      "lat": 45.4373695,
      "lng": 9.1993307,
      "premium": false,
      "cleaning_time": 120,
      "start_time": "15:51",
      "end_time": "17:51",
      "travel_time": 14,
      "followup": true
    },
    {
      "task_id": 218044,
      "logistic_code": "0",
      "cleanerId": 249,
      "assignment_type": "low_priority",
      "sequence": 2,
      "address": "VIA IMPERIA 3/B",
      "lat": 45.4416781,
      "lng": 9.1752361,
      "premium": false,
      "cleaning_time": 60,
      "start_time": "11:22",
      "end_time": "12:22",
      "travel_time": 23,
      "followup": true
    },
    {
      "task_id": 217846,
      "logistic_code": "1198",
      "cleanerId": 785,
      "assignment_type": "low_priority",
      "sequence": 2,
      "address": "Via Bergognone 31",
      "lat": 45.453707852983,
      "lng": 9.1641459982137,
      "premium": false,
      "cleaning_time": 180,
      "start_time": "10:38",
      "end_time": "13:38",
      "travel_time": 9,
      "followup": true
    },
    {
      "task_id": 217959,
      "logistic_code": "1395",
      "cleanerId": 1031,
      "assignment_type": "low_priority",
      "sequence": 2,
      "address": "Via Vigevano 7",
      "lat": 45.4527004,
      "lng": 9.1751151,
      "premium": false,
      "cleaning_time": 120,
      "start_time": "10:42",
      "end_time": "12:42",
      "travel_time": 13,
      "followup": true
    },
    {
      "task_id": 217901,
      "logistic_code": "289",
      "cleanerId": 1055,
      "assignment_type": "low_priority",
      "sequence": 3,
      "address": "VIA VIGEVANO 13",
      "lat": 45.4528415,
      "lng": 9.1742551,
      "premium": false,
      "cleaning_time": 90,
      "start_time": "14:35",
      "end_time": "16:05",
      "travel_time": 5,
      "followup": true
    },
    {
      "task_id": 217525,
      "logistic_code": "730",
      "cleanerId": 722,
      "assignment_type": "low_priority",
      "sequence": 3,
      "address": "VIA VERTOIBA 9",
      "lat": 45.4587042,
      "lng": 9.2168473,
      "premium": false,
      "cleaning_time": 30,
      "start_time": "15:29",
      "end_time": "15:59",
      "travel_time": 16,
      "followup": true
    },
    {
      "task_id": 217884,
      "logistic_code": "1153",
      "cleanerId": 1054,
      "assignment_type": "early_out",
      "sequence": 1,
      "address": "VIA CELESTINO IV, 9",
      "lat": 45.4596054,
      "lng": 9.1821442,
      "premium": false,
      "cleaning_time": 120,
      "start_time": "10:00",
      "end_time": "12:00",
      "travel_time": 0,
      "followup": false
    },
    {
      "task_id": 217855,
      "logistic_code": "571",
      "cleanerId": 24,
      "assignment_type": "early_out",
      "sequence": 1,
      "address": "VIA FORCELLA 15",
      "lat": 45.452359,
      "lng": 9.1668683,
      "premium": false,
      "cleaning_time": 90,
      "start_time": "10:00",
      "end_time": "11:30",
      "travel_time": 0,
      "followup": false
    },
    {
      "task_id": 217865,
      "logistic_code": "1639",
      "cleanerId": 829,
      "assignment_type": "early_out",
      "sequence": 1,
      "address": "CORSO MAGENTA 27",
      "lat": 45.4658001,
      "lng": 9.1771725,
      "premium": true,
      "cleaning_time": 120,
      "start_time": "10:00",
      "end_time": "12:00",
      "travel_time": 0,
      "followup": false
    },
    {
      "task_id": 217867,
      "logistic_code": "1620",
      "cleanerId": 404,
      "assignment_type": "early_out",
      "sequence": 1,
      "address": "Via Pietro Borsieri, 29,",
      "lat": 45.488597,
      "lng": 9.1889226,
      "premium": false,
      "cleaning_time": 90,
      "start_time": "10:00",
      "end_time": "11:30",
      "travel_time": 0,
      "followup": false
    },
    {
      "task_id": 217869,
      "logistic_code": "1630",
      "cleanerId": 596,
      "assignment_type": "early_out",
      "sequence": 1,
      "address": "Via dei Transiti 21",
      "lat": 45.490856,
      "lng": 9.2194138,
      "premium": false,
      "cleaning_time": 60,
      "start_time": "10:00",
      "end_time": "11:00",
      "travel_time": 0,
      "followup": false
    },
    {
      "task_id": 217870,
      "logistic_code": "623",
      "cleanerId": 1045,
      "assignment_type": "early_out",
      "sequence": 1,
      "address": "RIPA DI PORTA TICINESE 49",
      "lat": 45.4518038,
      "lng": 9.1768031,
      "premium": false,
      "cleaning_time": 60,
      "start_time": "10:00",
      "end_time": "11:00",
      "travel_time": 0,
      "followup": false
    },
    {
      "task_id": 217880,
      "logistic_code": "1401",
      "cleanerId": 1046,
      "assignment_type": "early_out",
      "sequence": 1,
      "address": "VIALE ZARA, 118",
      "lat": 45.4987885,
      "lng": 9.1968263,
      "premium": false,
      "cleaning_time": 60,
      "start_time": "10:00",
      "end_time": "11:00",
      "travel_time": 0,
      "followup": false
    },
    {
      "task_id": 217881,
      "logistic_code": "1626",
      "cleanerId": 132,
      "assignment_type": "early_out",
      "sequence": 1,
      "address": "Via Giancarlo Sismondi, 74",
      "lat": 45.465553,
      "lng": 9.2346878,
      "premium": false,
      "cleaning_time": 120,
      "start_time": "10:00",
      "end_time": "12:00",
      "travel_time": 0,
      "followup": false
    },
    {
      "task_id": 217882,
      "logistic_code": "584",
      "cleanerId": 722,
      "assignment_type": "early_out",
      "sequence": 1,
      "address": "VIA DEL TURCHINO 25",
      "lat": 45.4523635,
      "lng": 9.2287281,
      "premium": false,
      "cleaning_time": 60,
      "start_time": "10:00",
      "end_time": "11:00",
      "travel_time": 0,
      "followup": false
    },
    {
      "task_id": 217883,
      "logistic_code": "503",
      "cleanerId": 937,
      "assignment_type": "early_out",
      "sequence": 1,
      "address": "VIA ERODOTO, 2",
      "lat": 45.5089914,
      "lng": 9.2231804,
      "premium": false,
      "cleaning_time": 60,
      "start_time": "10:00",
      "end_time": "11:00",
      "travel_time": 0,
      "followup": false
    },
    {
      "task_id": 217885,
      "logistic_code": "1240",
      "cleanerId": 1060,
      "assignment_type": "early_out",
      "sequence": 1,
      "address": "VIALE CONI ZUGNA 52",
      "lat": 45.4566617,
      "lng": 9.1699158,
      "premium": false,
      "cleaning_time": 60,
      "start_time": "10:00",
      "end_time": "11:00",
      "travel_time": 0,
      "followup": false
    },
    {
      "task_id": 217997,
      "logistic_code": "617",
      "cleanerId": 785,
      "assignment_type": "early_out",
      "sequence": 1,
      "address": "VIA VOGHERA, 4",
      "lat": 45.454632,
      "lng": 9.168536,
      "premium": false,
      "cleaning_time": 30,
      "start_time": "10:00",
      "end_time": "10:30",
      "travel_time": 0,
      "followup": false
    },
    {
      "task_id": 217998,
      "logistic_code": "618",
      "cleanerId": 1031,
      "assignment_type": "early_out",
      "sequence": 1,
      "address": "VIA VOGHERA, 4",
      "lat": 45.454632,
      "lng": 9.168536,
      "premium": false,
      "cleaning_time": 30,
      "start_time": "10:00",
      "end_time": "10:30",
      "travel_time": 0,
      "followup": false
    },
    {
      "task_id": 217999,
      "logistic_code": "619",
      "cleanerId": 1054,
      "assignment_type": "early_out",
      "sequence": 1,
      "address": "VIA TORTONA, 10",
      "lat": 45.4542397,
      "lng": 9.1686792,
      "premium": false,
      "cleaning_time": 40,
      "start_time": "10:00",
      "end_time": "10:40",
      "travel_time": 0,
      "followup": false
    },
    {
      "task_id": 218030,
      "logistic_code": "1197",
      "cleanerId": 829,
      "assignment_type": "high_priority",
      "sequence": 2,
      "address": "Via Lupetta, 3 20123 (MI)",
      "lat": 45.4620413,
      "lng": 9.1864812,
      "premium": true,
      "cleaning_time": 120,
      "start_time": "12:16",
      "end_time": "14:16",
      "travel_time": 16,
      "followup": true
    },
    {
      "task_id": 218031,
      "logistic_code": "1363",
      "cleanerId": 829,
      "assignment_type": "high_priority",
      "sequence": 3,
      "address": "VIA AMEDEI, 2",
      "lat": 45.4597298,
      "lng": 9.186577,
      "premium": true,
      "cleaning_time": 270,
      "start_time": "14:23",
      "end_time": "18:53",
      "travel_time": 8,
      "followup": true
    },
    {
      "task_id": 217879,
      "logistic_code": "1617",
      "cleanerId": 596,
      "assignment_type": "high_priority",
      "sequence": 2,
      "address": "VIA DELL'ANNUNCIATA 7",
      "lat": 45.4724431,
      "lng": 9.1933797,
      "premium": true,
      "cleaning_time": 180,
      "start_time": "11:27",
      "end_time": "14:27",
      "travel_time": 28,
      "followup": true
    },
    {
      "task_id": 218027,
      "logistic_code": "1048",
      "cleanerId": 1045,
      "assignment_type": "high_priority",
      "sequence": 2,
      "address": "Via Vigevano 9",
      "lat": 45.4527254,
      "lng": 9.1748049,
      "premium": false,
      "cleaning_time": 210,
      "start_time": "11:06",
      "end_time": "14:36",
      "travel_time": 6,
      "followup": true
    },
    {
      "task_id": 218021,
      "logistic_code": "534",
      "cleanerId": 785,
      "assignment_type": "high_priority",
      "sequence": 2,
      "address": "VIA DE AMICIS, 4",
      "lat": 45.4579076,
      "lng": 9.1804356,
      "premium": true,
      "cleaning_time": 150,
      "start_time": "11:00",
      "end_time": "13:30",
      "travel_time": 18,
      "followup": true
    },
    {
      "task_id": 218025,
      "logistic_code": "716",
      "cleanerId": 785,
      "assignment_type": "high_priority",
      "sequence": 3,
      "address": "PIAZZA MENTANA, 8",
      "lat": 45.4623463,
      "lng": 9.1819616,
      "premium": true,
      "cleaning_time": 120,
      "start_time": "13:42",
      "end_time": "15:42",
      "travel_time": 12,
      "followup": true
    },
    {
      "task_id": 217866,
      "logistic_code": "1494",
      "cleanerId": 1055,
      "assignment_type": "high_priority",
      "sequence": 1,
      "address": "VIA ORTI 16D",
      "lat": 45.454729,
      "lng": 9.2015875,
      "premium": false,
      "cleaning_time": 90,
      "start_time": "11:00",
      "end_time": "12:30",
      "travel_time": 0,
      "followup": false
    },
    {
      "task_id": 218011,
      "logistic_code": "109",
      "cleanerId": 495,
      "assignment_type": "high_priority",
      "sequence": 1,
      "address": "VIALE MONTENERO 59",
      "lat": 45.45962,
      "lng": 9.2067142,
      "premium": true,
      "cleaning_time": 150,
      "start_time": "11:00",
      "end_time": "13:30",
      "travel_time": 0,
      "followup": false
    },
    {
      "task_id": 218020,
      "logistic_code": "298",
      "cleanerId": 249,
      "assignment_type": "high_priority",
      "sequence": 1,
      "address": "STRADA DELLA CARITA', 2",
      "lat": 45.4493742,
      "lng": 9.2075671,
      "premium": true,
      "cleaning_time": 150,
      "start_time": "11:00",
      "end_time": "13:30",
      "travel_time": 0,
      "followup": false
    },
    {
      "task_id": 217868,
      "logistic_code": "1675",
      "cleanerId": 287,
      "assignment_type": "high_priority",
      "sequence": 1,
      "address": "Via Lambro, 12",
      "lat": 45.474136,
      "lng": 9.2097826,
      "premium": false,
      "cleaning_time": 90,
      "start_time": "11:00",
      "end_time": "12:30",
      "travel_time": 0,
      "followup": false
    }
  ],
  "current_date": "2025-10-26"
}