{
  "assignments": [
    {
      "task_id": 218061,
      "logistic_code": "1470",
      "cleanerId": 404,
      "assignment_type": "low_priority",
      "sequence": 2,
      "address": "Via Pergolesi, 29",
      "lat": 45.4858682,
      "lng": 9.2081009,
      "premium": false,
      "cleaning_time": 150,
      "start_time": "11:10",
      "end_time": "13:40",
      "travel_time": 11,
      "followup": true
    },
    {
      "task_id": 218073,
      "logistic_code": "1470",
      "cleanerId": 404,
      "assignment_type": "low_priority",
      "sequence": 3,
      "address": "Via Pergolesi, 29",
      "lat": 45.4858682,
      "lng": 9.2081009,
      "premium": false,
      "cleaning_time": 150,
      "start_time": "13:44",
      "end_time": "16:14",
      "travel_time": 4,
      "followup": true
    },
    {
      "task_id": 217949,
      "logistic_code": "1575",
      "cleanerId": 132,
      "assignment_type": "low_priority",
      "sequence": 3,
      "address": "VIALE FAMAGOSTA 55",
      "lat": 45.4378165,
      "lng": 9.1630438,
      "premium": false,
      "cleaning_time": 150,
      "start_time": "13:30",
      "end_time": "16:00",
      "travel_time": 22,
      "followup": true
    },
    {
      "task_id": 218046,
      "logistic_code": "0",
      "cleanerId": 1060,
      "assignment_type": "low_priority",
      "sequence": 2,
      "address": "Via Morigi, 3",
      "lat": 45.462448,
      "lng": 9.1811314,
      "premium": false,
      "cleaning_time": 60,
      "start_time": "12:07",
      "end_time": "13:07",
      "travel_time": 8,
      "followup": true
    },
    {
      "task_id": 217488,
      "logistic_code": "1666",
      "cleanerId": 1060,
      "assignment_type": "low_priority",
      "sequence": 3,
      "address": "VIA CESARE CORRENTI 16",
      "lat": 45.4596414,
      "lng": 9.1796493,
      "premium": false,
      "cleaning_time": 120,
      "start_time": "13:15",
      "end_time": "15:15",
      "travel_time": 8,
      "followup": true
    },
    {
      "task_id": 213580,
      "logistic_code": "410",
      "cleanerId": 1031,
      "assignment_type": "low_priority",
      "sequence": 1,
      "address": "VIA GIAN GALEAZZO 7",
      "lat": 45.4529136,
      "lng": 9.1823451,
      "premium": false,
      "cleaning_time": 90,
      "start_time": "10:12",
      "end_time": "11:42",
      "travel_time": 0,
      "followup": false
    },
    {
      "task_id": 217911,
      "logistic_code": "1674",
      "cleanerId": 1054,
      "assignment_type": "low_priority",
      "sequence": 1,
      "address": "Via Disciplini, 4",
      "lat": 45.45829,
      "lng": 9.1866989,
      "premium": false,
      "cleaning_time": 60,
      "start_time": "10:12",
      "end_time": "11:12",
      "travel_time": 0,
      "followup": false
    },
    {
      "task_id": 217912,
      "logistic_code": "1109",
      "cleanerId": 1055,
      "assignment_type": "low_priority",
      "sequence": 1,
      "address": "VIA MELZO, 5",
      "lat": 45.4728056,
      "lng": 9.2097155,
      "premium": false,
      "cleaning_time": 90,
      "start_time": "10:12",
      "end_time": "11:42",
      "travel_time": 0,
      "followup": false
    },
    {
      "task_id": 217913,
      "logistic_code": "1124",
      "cleanerId": 495,
      "assignment_type": "low_priority",
      "sequence": 1,
      "address": "VIA BRONI, 21",
      "lat": 45.4342038,
      "lng": 9.2049012,
      "premium": false,
      "cleaning_time": 60,
      "start_time": "10:12",
      "end_time": "11:12",
      "travel_time": 0,
      "followup": false
    },
    {
      "task_id": 217914,
      "logistic_code": "1652",
      "cleanerId": 249,
      "assignment_type": "low_priority",
      "sequence": 1,
      "address": "VIA NINO BIXIO 33",
      "lat": 45.4725999,
      "lng": 9.2118362,
      "premium": false,
      "cleaning_time": 90,
      "start_time": "10:12",
      "end_time": "11:42",
      "travel_time": 0,
      "followup": false
    },
    {
      "task_id": 217929,
      "logistic_code": "1655",
      "cleanerId": 249,
      "assignment_type": "low_priority",
      "sequence": 2,
      "address": "VIA NINO BIXIO 33",
      "lat": 45.4725999,
      "lng": 9.2118362,
      "premium": false,
      "cleaning_time": 90,
      "start_time": "11:45",
      "end_time": "13:15",
      "travel_time": 4,
      "followup": true
    },
    {
      "task_id": 217925,
      "logistic_code": "1552",
      "cleanerId": 287,
      "assignment_type": "low_priority",
      "sequence": 1,
      "address": "VIA CASCINA BELCASULE, 4",
      "lat": 45.4328209,
      "lng": 9.1973986,
      "premium": false,
      "cleaning_time": 60,
      "start_time": "10:12",
      "end_time": "11:12",
      "travel_time": 0,
      "followup": false
    },
    {
      "task_id": 217928,
      "logistic_code": "1618",
      "cleanerId": 326,
      "assignment_type": "low_priority",
      "sequence": 1,
      "address": "VIALE CERTOSA 92",
      "lat": 45.4938429,
      "lng": 9.1438164,
      "premium": false,
      "cleaning_time": 90,
      "start_time": "10:12",
      "end_time": "11:42",
      "travel_time": 0,
      "followup": false
    }
  ],
  "current_date": "2025-10-28"
}